{
  "type": "FeatureCollection",
  "generator": "overpass-ide",
  "copyright": "The data included in this document is from www.openstreetmap.org. The data is made available under ODbL.",
  "timestamp": "2023-02-16T17:49:01Z",
  "features": [
    {
      "type": "Feature",
      "properties": {
        "@id": "node/30088423",
        "addr:city": "Nairobi",
        "addr:housenumber": "First Floor,Chancery Building,Valley Rd, Nairobi",
        "addr:street": "Valley Road",
        "amenity": "restaurant",
        "name": "China Plate"
      },
      "geometry": {
        "type": "Point",
        "coordinates": [
          36.8062444,
          -1.2923577
        ]
      },
      "id": "node/30088423"
    },
    {
      "type": "Feature",
      "properties": {
        "@id": "node/30092128",
        "addr:city": "Nairobi",
        "addr:street": "Langata Road",
        "amenity": "restaurant",
        "name": "Nairobi Bread Company"
      },
      "geometry": {
        "type": "Point",
        "coordinates": [
          36.7125438,
          -1.3289322
        ]
      },
      "id": "node/30092128"
    },
    {
      "type": "Feature",
      "properties": {
        "@id": "node/30092309",
        "amenity": "restaurant",
        "name": "Carnivore"
      },
      "geometry": {
        "type": "Point",
        "coordinates": [
          36.8005768,
          -1.3293483
        ]
      },
      "id": "node/30092309"
    },
    {
      "type": "Feature",
      "properties": {
        "@id": "node/30210243",
        "amenity": "restaurant",
        "name": "The Blues"
      },
      "geometry": {
        "type": "Point",
        "coordinates": [
          36.7996806,
          -1.294902
        ]
      },
      "id": "node/30210243"
    },
    {
      "type": "Feature",
      "properties": {
        "@id": "node/30210244",
        "addr:city": "Nairobi",
        "addr:street": "Argwings Kodhek Road",
        "amenity": "restaurant",
        "cuisine": "chinese",
        "name": "Shanghai Restaurant"
      },
      "geometry": {
        "type": "Point",
        "coordinates": [
          36.7981018,
          -1.2949839
        ]
      },
      "id": "node/30210244"
    },
    {
      "type": "Feature",
      "properties": {
        "@id": "node/30210293",
        "addr:city": "Nairobi",
        "addr:street": "Argwings Kodhek Road",
        "amenity": "restaurant",
        "cuisine": "chinese",
        "name": "New Beijing Restaurant",
        "name:zh": "兰州拉面"
      },
      "geometry": {
        "type": "Point",
        "coordinates": [
          36.7933716,
          -1.293115
        ]
      },
      "id": "node/30210293"
    },
    {
      "type": "Feature",
      "properties": {
        "@id": "node/30215021",
        "amenity": "restaurant",
        "name": "Habesha II Ethiopian"
      },
      "geometry": {
        "type": "Point",
        "coordinates": [
          36.8159604,
          -1.2829298
        ]
      },
      "id": "node/30215021"
    },
    {
      "type": "Feature",
      "properties": {
        "@id": "node/30215042",
        "addr:city": "Nairobi",
        "addr:street": "Haile Selassie Avenue",
        "amenity": "restaurant",
        "name": "The Apple Munch Restaurant",
        "name:it": "The Apple Munch"
      },
      "geometry": {
        "type": "Point",
        "coordinates": [
          36.8214426,
          -1.291931
        ]
      },
      "id": "node/30215042"
    },
    {
      "type": "Feature",
      "properties": {
        "@id": "node/30312305",
        "amenity": "restaurant",
        "cuisine": "indian",
        "name": "Anghiti"
      },
      "geometry": {
        "type": "Point",
        "coordinates": [
          36.7993414,
          -1.2663406
        ]
      },
      "id": "node/30312305"
    },
    {
      "type": "Feature",
      "properties": {
        "@id": "node/30320192",
        "amenity": "restaurant",
        "name": "Siam Thai"
      },
      "geometry": {
        "type": "Point",
        "coordinates": [
          36.8043073,
          -1.2632851
        ]
      },
      "id": "node/30320192"
    },
    {
      "type": "Feature",
      "properties": {
        "@id": "node/30324348",
        "addr:city": "Nairobi",
        "addr:street": "Muthithi Road",
        "amenity": "restaurant",
        "name": "Taiwan"
      },
      "geometry": {
        "type": "Point",
        "coordinates": [
          36.8054258,
          -1.2638579
        ]
      },
      "id": "node/30324348"
    },
    {
      "type": "Feature",
      "properties": {
        "@id": "node/30695695",
        "amenity": "restaurant",
        "created_by": "JOSM",
        "name": "YWCA"
      },
      "geometry": {
        "type": "Point",
        "coordinates": [
          36.8134256,
          -1.2855082
        ]
      },
      "id": "node/30695695"
    },
    {
      "type": "Feature",
      "properties": {
        "@id": "node/151516294",
        "addr:city": "Nairobi",
        "addr:street": "Limuru Road",
        "amenity": "restaurant",
        "name": "La Dolce Vita"
      },
      "geometry": {
        "type": "Point",
        "coordinates": [
          36.8203553,
          -1.2497399
        ]
      },
      "id": "node/151516294"
    },
    {
      "type": "Feature",
      "properties": {
        "@id": "node/255660901",
        "amenity": "restaurant",
        "cuisine": "italian",
        "name": "Osteria del Chianti"
      },
      "geometry": {
        "type": "Point",
        "coordinates": [
          36.7900038,
          -1.2889249
        ]
      },
      "id": "node/255660901"
    },
    {
      "type": "Feature",
      "properties": {
        "@id": "node/255682373",
        "addr:city": "Nairobi",
        "addr:housenumber": "APT B7",
        "addr:street": "Lenana Road",
        "amenity": "restaurant",
        "cuisine": "lebanese",
        "name": "Cedars Restaurant"
      },
      "geometry": {
        "type": "Point",
        "coordinates": [
          36.790909,
          -1.2887897
        ]
      },
      "id": "node/255682373"
    },
    {
      "type": "Feature",
      "properties": {
        "@id": "node/255683130",
        "addr:city": "Nairobi",
        "addr:street": "Maalim Juma Road",
        "amenity": "restaurant",
        "name": "Q Lounge"
      },
      "geometry": {
        "type": "Point",
        "coordinates": [
          36.791729,
          -1.2856126
        ]
      },
      "id": "node/255683130"
    },
    {
      "type": "Feature",
      "properties": {
        "@id": "node/280243255",
        "addr:city": "Nairobi",
        "addr:housenumber": "Limuru Rd, Nairobi",
        "addr:street": "Limuru Road",
        "amenity": "restaurant",
        "name": "Java House Gigiri"
      },
      "geometry": {
        "type": "Point",
        "coordinates": [
          36.8118142,
          -1.2388245
        ]
      },
      "id": "node/280243255"
    },
    {
      "type": "Feature",
      "properties": {
        "@id": "node/295839273",
        "addr:city": "Nairobi",
        "addr:street": "Rosslyn Green Crescent",
        "amenity": "restaurant",
        "name": "River Cafe"
      },
      "geometry": {
        "type": "Point",
        "coordinates": [
          36.8009518,
          -1.2243105
        ]
      },
      "id": "node/295839273"
    },
    {
      "type": "Feature",
      "properties": {
        "@id": "node/315205740",
        "addr:city": "Nairobi",
        "addr:street": "Argwings Kodhek Road",
        "amenity": "restaurant",
        "name": "Diners Gardens"
      },
      "geometry": {
        "type": "Point",
        "coordinates": [
          36.782942,
          -1.2922001
        ]
      },
      "id": "node/315205740"
    },
    {
      "type": "Feature",
      "properties": {
        "@id": "node/323106965",
        "amenity": "restaurant",
        "description": "Japanese",
        "name": "Misono"
      },
      "geometry": {
        "type": "Point",
        "coordinates": [
          36.7883178,
          -1.2893296
        ]
      },
      "id": "node/323106965"
    },
    {
      "type": "Feature",
      "properties": {
        "@id": "node/354402134",
        "amenity": "restaurant",
        "cuisine": "italian",
        "name": "Mediterraneo",
        "outdoor_seating": "yes"
      },
      "geometry": {
        "type": "Point",
        "coordinates": [
          36.7620093,
          -1.2981956
        ]
      },
      "id": "node/354402134"
    },
    {
      "type": "Feature",
      "properties": {
        "@id": "node/473447888",
        "addr:city": "Nairobi",
        "addr:street": "Argwings Kodhek Road",
        "amenity": "restaurant",
        "cuisine": "ethiopian",
        "name": "Habesha"
      },
      "geometry": {
        "type": "Point",
        "coordinates": [
          36.779866,
          -1.2923256
        ]
      },
      "id": "node/473447888"
    },
    {
      "type": "Feature",
      "properties": {
        "@id": "node/481978553",
        "addr:city": "Nairobi",
        "addr:street": "Parklands Road",
        "amenity": "restaurant",
        "name": "Spurs Steak Ranches"
      },
      "geometry": {
        "type": "Point",
        "coordinates": [
          36.8077576,
          -1.2633293
        ]
      },
      "id": "node/481978553"
    },
    {
      "type": "Feature",
      "properties": {
        "@id": "node/494149249",
        "addr:city": "Nairobi",
        "addr:housenumber": "ABC Place,",
        "addr:street": "James Gichuru Road",
        "amenity": "restaurant",
        "cuisine": "seafood",
        "name": "Seven Seafood & Grill"
      },
      "geometry": {
        "type": "Point",
        "coordinates": [
          36.776546,
          -1.2598792
        ]
      },
      "id": "node/494149249"
    },
    {
      "type": "Feature",
      "properties": {
        "@id": "node/496876161",
        "amenity": "restaurant",
        "name": "Southern Comfort"
      },
      "geometry": {
        "type": "Point",
        "coordinates": [
          36.7431469,
          -1.3665137
        ]
      },
      "id": "node/496876161"
    },
    {
      "type": "Feature",
      "properties": {
        "@id": "node/508653275",
        "addr:city": "Nairobi",
        "addr:housenumber": "Langata Rd, Nairobi",
        "addr:street": "Langata Road",
        "amenity": "restaurant",
        "name": "Pizza Inn-Galleria"
      },
      "geometry": {
        "type": "Point",
        "coordinates": [
          36.7642987,
          -1.3427
        ]
      },
      "id": "node/508653275"
    },
    {
      "type": "Feature",
      "properties": {
        "@id": "node/521103953",
        "amenity": "restaurant",
        "cuisine": "international",
        "name": "Talisman",
        "name:etymology:wikidata": "Q44506",
        "opening_hours": "Mo 00:00-01:00,16:00-21:00; Tu 12:00-24:00; We-Fr 00:00-01:00,12:00-24:00; Sa,Su 00:00-01:00,09:00-24:00",
        "phone": "+254 705999997",
        "website": "http://www.thetalismanrestaurant.com/"
      },
      "geometry": {
        "type": "Point",
        "coordinates": [
          36.7031939,
          -1.3230815
        ]
      },
      "id": "node/521103953"
    },
    {
      "type": "Feature",
      "properties": {
        "@id": "node/537501268",
        "addr:city": "Nairobi",
        "addr:street": "Muthithi Road",
        "amenity": "restaurant",
        "cuisine": "italian",
        "name": "Osteria Westlands"
      },
      "geometry": {
        "type": "Point",
        "coordinates": [
          36.808429,
          -1.267709
        ]
      },
      "id": "node/537501268"
    },
    {
      "type": "Feature",
      "properties": {
        "@id": "node/571733403",
        "addr:city": "Nairobi",
        "addr:housenumber": "Upper Hill,General Accident Building, Ralph Bunche Road, Nairobi",
        "addr:street": "Ralph Bunche Road",
        "amenity": "restaurant",
        "name": "Savannah Upper Hill"
      },
      "geometry": {
        "type": "Point",
        "coordinates": [
          36.8071943,
          -1.2957893
        ]
      },
      "id": "node/571733403"
    },
    {
      "type": "Feature",
      "properties": {
        "@id": "node/582802520",
        "addr:city": "Nairobi",
        "addr:street": "Waiyaki Way",
        "amenity": "restaurant",
        "cuisine": "brazilian",
        "name": "Fogo Gaucho"
      },
      "geometry": {
        "type": "Point",
        "coordinates": [
          36.801008,
          -1.264147
        ]
      },
      "id": "node/582802520"
    },
    {
      "type": "Feature",
      "properties": {
        "@id": "node/583157835",
        "amenity": "restaurant",
        "cuisine": "japanese",
        "name": "Karen Professional Centre"
      },
      "geometry": {
        "type": "Point",
        "coordinates": [
          36.717338,
          -1.327654
        ]
      },
      "id": "node/583157835"
    },
    {
      "type": "Feature",
      "properties": {
        "@id": "node/612008498",
        "amenity": "restaurant",
        "name": "4u2 bar and restaurant",
        "opening_hours": "24/7"
      },
      "geometry": {
        "type": "Point",
        "coordinates": [
          36.7757061,
          -1.3091266
        ]
      },
      "id": "node/612008498"
    },
    {
      "type": "Feature",
      "properties": {
        "@id": "node/612009164",
        "amenity": "restaurant",
        "name": "Cate take away hotel"
      },
      "geometry": {
        "type": "Point",
        "coordinates": [
          36.7960409,
          -1.3107184
        ]
      },
      "id": "node/612009164"
    },
    {
      "type": "Feature",
      "properties": {
        "@id": "node/637003378",
        "amenity": "restaurant"
      },
      "geometry": {
        "type": "Point",
        "coordinates": [
          36.8345715,
          -1.277735
        ]
      },
      "id": "node/637003378"
    },
    {
      "type": "Feature",
      "properties": {
        "@id": "node/654823616",
        "addr:housenumber": "Nairobi City",
        "amenity": "restaurant",
        "name": "Forest Wag Tail Restaurant",
        "name:it": "Forest Wag Tail"
      },
      "geometry": {
        "type": "Point",
        "coordinates": [
          36.8080505,
          -1.2324273
        ]
      },
      "id": "node/654823616"
    },
    {
      "type": "Feature",
      "properties": {
        "@id": "node/688708704",
        "addr:street": "Oloitoktok Road",
        "amenity": "restaurant",
        "name": "Pumula Restaurant"
      },
      "geometry": {
        "type": "Point",
        "coordinates": [
          36.7752906,
          -1.2898667
        ]
      },
      "id": "node/688708704"
    },
    {
      "type": "Feature",
      "properties": {
        "@id": "node/702366033",
        "amenity": "restaurant",
        "cuisine": "ethiopian",
        "name": "Smart Village"
      },
      "geometry": {
        "type": "Point",
        "coordinates": [
          36.7796753,
          -1.2963565
        ]
      },
      "id": "node/702366033"
    },
    {
      "type": "Feature",
      "properties": {
        "@id": "node/703562779",
        "addr:city": "Nairobi",
        "addr:street": "Ngong Road",
        "amenity": "restaurant",
        "name": "Osteria"
      },
      "geometry": {
        "type": "Point",
        "coordinates": [
          36.701223,
          -1.323886
        ]
      },
      "id": "node/703562779"
    },
    {
      "type": "Feature",
      "properties": {
        "@id": "node/714721592",
        "addr:city": "Nairobi",
        "addr:street": "Ngong Road",
        "amenity": "restaurant",
        "cuisine": "regional",
        "name": "Saitotis"
      },
      "geometry": {
        "type": "Point",
        "coordinates": [
          36.7164392,
          -1.3186635
        ]
      },
      "id": "node/714721592"
    },
    {
      "type": "Feature",
      "properties": {
        "@id": "node/771252811",
        "amenity": "restaurant",
        "name": "The Agenda"
      },
      "geometry": {
        "type": "Point",
        "coordinates": [
          36.791691,
          -1.2991259
        ]
      },
      "id": "node/771252811"
    },
    {
      "type": "Feature",
      "properties": {
        "@id": "node/805298110",
        "addr:city": "Nairobi",
        "amenity": "restaurant",
        "cuisine": "italian",
        "name": "Mediterraneo"
      },
      "geometry": {
        "type": "Point",
        "coordinates": [
          36.811037,
          -1.236628
        ]
      },
      "id": "node/805298110"
    },
    {
      "type": "Feature",
      "properties": {
        "@id": "node/809811875",
        "addr:city": "Nairobi",
        "addr:street": "Limuru Road",
        "amenity": "restaurant",
        "name": "Chicken Palace."
      },
      "geometry": {
        "type": "Point",
        "coordinates": [
          36.7903928,
          -1.2106578
        ]
      },
      "id": "node/809811875"
    },
    {
      "type": "Feature",
      "properties": {
        "@id": "node/842042537",
        "addr:city": "Nairobi",
        "addr:street": "Argwings Kodhek Road",
        "amenity": "restaurant",
        "name": "Tamasha Hurlingham"
      },
      "geometry": {
        "type": "Point",
        "coordinates": [
          36.7970213,
          -1.2949522
        ]
      },
      "id": "node/842042537"
    },
    {
      "type": "Feature",
      "properties": {
        "@id": "node/948311709",
        "amenity": "restaurant",
        "name": "Muscat Bar and Restaurant",
        "security:bar": "yes",
        "security:description": "they sell beer and food"
      },
      "geometry": {
        "type": "Point",
        "coordinates": [
          36.7865741,
          -1.3071557
        ]
      },
      "id": "node/948311709"
    },
    {
      "type": "Feature",
      "properties": {
        "@id": "node/1002255495",
        "addr:housenumber": "Kenya Rd, Nairobi City",
        "amenity": "restaurant",
        "cuisine": "arabic",
        "name": "The Arabian Cuisine المطعم اليمني"
      },
      "geometry": {
        "type": "Point",
        "coordinates": [
          36.8162923,
          -1.3005343
        ]
      },
      "id": "node/1002255495"
    },
    {
      "type": "Feature",
      "properties": {
        "@id": "node/1036132148",
        "addr:city": "Nairobi",
        "addr:street": "Langata Road",
        "amenity": "restaurant",
        "name": "Sebastian‘s Corner"
      },
      "geometry": {
        "type": "Point",
        "coordinates": [
          36.7793626,
          -1.3353301
        ]
      },
      "id": "node/1036132148"
    },
    {
      "type": "Feature",
      "properties": {
        "@id": "node/1045131996",
        "amenity": "restaurant",
        "name": "Cyber Inn"
      },
      "geometry": {
        "type": "Point",
        "coordinates": [
          36.9272885,
          -1.1879664
        ]
      },
      "id": "node/1045131996"
    },
    {
      "type": "Feature",
      "properties": {
        "@id": "node/1078542342",
        "addr:street": "Karen Road",
        "amenity": "restaurant",
        "name": "Karen Blixen Coffee House"
      },
      "geometry": {
        "type": "Point",
        "coordinates": [
          36.7137072,
          -1.3456516
        ]
      },
      "id": "node/1078542342"
    },
    {
      "type": "Feature",
      "properties": {
        "@id": "node/1111587026",
        "amenity": "restaurant",
        "name": "Janes Paradise Bar and Restaurant"
      },
      "geometry": {
        "type": "Point",
        "coordinates": [
          36.870344,
          -1.2529511
        ]
      },
      "id": "node/1111587026"
    },
    {
      "type": "Feature",
      "properties": {
        "@id": "node/1112884998",
        "amenity": "restaurant",
        "name": "Thayu Hotel"
      },
      "geometry": {
        "type": "Point",
        "coordinates": [
          36.8630575,
          -1.263134
        ]
      },
      "id": "node/1112884998"
    },
    {
      "type": "Feature",
      "properties": {
        "@id": "node/1123193272",
        "amenity": "restaurant",
        "name": "Dallas Bar and Restaurant Musyi",
        "name:it": "Dallas"
      },
      "geometry": {
        "type": "Point",
        "coordinates": [
          36.8669641,
          -1.2592137
        ]
      },
      "id": "node/1123193272"
    },
    {
      "type": "Feature",
      "properties": {
        "@id": "node/1123193275",
        "amenity": "restaurant",
        "name": "Huruma Meat Point"
      },
      "geometry": {
        "type": "Point",
        "coordinates": [
          36.8667,
          -1.2610265
        ]
      },
      "id": "node/1123193275"
    },
    {
      "type": "Feature",
      "properties": {
        "@id": "node/1124602216",
        "amenity": "restaurant",
        "name": "J.K Mbuthia house",
        "name:it": "J.K. Mbuthia House"
      },
      "geometry": {
        "type": "Point",
        "coordinates": [
          36.8664763,
          -1.2588681
        ]
      },
      "id": "node/1124602216"
    },
    {
      "type": "Feature",
      "properties": {
        "@id": "node/1124602258",
        "amenity": "restaurant",
        "name": "Thiong,o bar and resturant",
        "name:it": "Thiong,o"
      },
      "geometry": {
        "type": "Point",
        "coordinates": [
          36.8660136,
          -1.2586327
        ]
      },
      "id": "node/1124602258"
    },
    {
      "type": "Feature",
      "properties": {
        "@id": "node/1172493660",
        "amenity": "restaurant",
        "name": "Nyumbani Sports Club"
      },
      "geometry": {
        "type": "Point",
        "coordinates": [
          36.8279525,
          -1.1743665
        ]
      },
      "id": "node/1172493660"
    },
    {
      "type": "Feature",
      "properties": {
        "@id": "node/1204011721",
        "addr:housenumber": "Langata Rd, Nairobi",
        "amenity": "restaurant",
        "name": "The Headquarters Inn"
      },
      "geometry": {
        "type": "Point",
        "coordinates": [
          36.7961788,
          -1.3242908
        ]
      },
      "id": "node/1204011721"
    },
    {
      "type": "Feature",
      "properties": {
        "@id": "node/1221423620",
        "addr:city": "Nairobi",
        "addr:street": "Parklands Road",
        "amenity": "restaurant",
        "cuisine": "indian",
        "name": "Maharaja Restaurant"
      },
      "geometry": {
        "type": "Point",
        "coordinates": [
          36.8109797,
          -1.2644254
        ]
      },
      "id": "node/1221423620"
    },
    {
      "type": "Feature",
      "properties": {
        "@id": "node/1294403073",
        "addr:city": "Nairobi",
        "addr:street": "Wabera Street",
        "amenity": "restaurant",
        "cuisine": "italian",
        "name": "Trattoria",
        "opening_hours": "Mo-Su 07:00-24:00",
        "phone": "0202240205"
      },
      "geometry": {
        "type": "Point",
        "coordinates": [
          36.822165,
          -1.2853789
        ]
      },
      "id": "node/1294403073"
    },
    {
      "type": "Feature",
      "properties": {
        "@id": "node/1306116731",
        "addr:city": "Nairobi",
        "addr:housenumber": "Piedmont Plaza, 671",
        "addr:street": "Ngong Road",
        "amenity": "restaurant",
        "name": "Brew Bistro"
      },
      "geometry": {
        "type": "Point",
        "coordinates": [
          36.7655211,
          -1.2992947
        ]
      },
      "id": "node/1306116731"
    },
    {
      "type": "Feature",
      "properties": {
        "@id": "node/1306116734",
        "amenity": "restaurant",
        "cuisine": "ethiopian",
        "name": "Sabrina's"
      },
      "geometry": {
        "type": "Point",
        "coordinates": [
          36.7651931,
          -1.2932159
        ]
      },
      "id": "node/1306116734"
    },
    {
      "type": "Feature",
      "properties": {
        "@id": "node/1306116740",
        "amenity": "restaurant",
        "name": "Artcaffé",
        "outdoor_seating": "yes"
      },
      "geometry": {
        "type": "Point",
        "coordinates": [
          36.7618023,
          -1.2985954
        ]
      },
      "id": "node/1306116740"
    },
    {
      "type": "Feature",
      "properties": {
        "@id": "node/1306122776",
        "amenity": "restaurant",
        "cuisine": "chinese;japanese",
        "name": "Sushi Soo"
      },
      "geometry": {
        "type": "Point",
        "coordinates": [
          36.7617334,
          -1.2936283
        ]
      },
      "id": "node/1306122776"
    },
    {
      "type": "Feature",
      "properties": {
        "@id": "node/1333619849",
        "amenity": "restaurant",
        "name": "Amaica Restaurant"
      },
      "geometry": {
        "type": "Point",
        "coordinates": [
          36.8039737,
          -1.2896044
        ]
      },
      "id": "node/1333619849"
    },
    {
      "type": "Feature",
      "properties": {
        "@id": "node/1333644474",
        "addr:city": "Nairobi",
        "addr:housenumber": "P.O. Box 34877. Kedong House,",
        "addr:street": "Lenana Road",
        "amenity": "restaurant",
        "name": "Slims Restaurant",
        "opening_hours": "24/7"
      },
      "geometry": {
        "type": "Point",
        "coordinates": [
          36.8049388,
          -1.290839
        ]
      },
      "id": "node/1333644474"
    },
    {
      "type": "Feature",
      "properties": {
        "@id": "node/1333669394",
        "amenity": "restaurant",
        "name": "Lenana Restaurant"
      },
      "geometry": {
        "type": "Point",
        "coordinates": [
          36.8003077,
          -1.2899904
        ]
      },
      "id": "node/1333669394"
    },
    {
      "type": "Feature",
      "properties": {
        "@id": "node/1333669419",
        "amenity": "restaurant",
        "name": "Lower Restaurant"
      },
      "geometry": {
        "type": "Point",
        "coordinates": [
          36.8004228,
          -1.2897204
        ]
      },
      "id": "node/1333669419"
    },
    {
      "type": "Feature",
      "properties": {
        "@id": "node/1333670146",
        "amenity": "restaurant",
        "name": "Checkers inn Bar & restaurant"
      },
      "geometry": {
        "type": "Point",
        "coordinates": [
          36.795884,
          -1.2917346
        ]
      },
      "id": "node/1333670146"
    },
    {
      "type": "Feature",
      "properties": {
        "@id": "node/1399140356",
        "addr:city": "Nairobi",
        "addr:housenumber": "Bruce House,",
        "addr:street": "Cardinal Otunga Street",
        "amenity": "restaurant",
        "cuisine": "african",
        "name": "Peach Restaurant",
        "name:it": "Peach"
      },
      "geometry": {
        "type": "Point",
        "coordinates": [
          36.8207987,
          -1.2862164
        ]
      },
      "id": "node/1399140356"
    },
    {
      "type": "Feature",
      "properties": {
        "@id": "node/1415247196",
        "addr:city": "Nairobi",
        "addr:street": "Kimathi Street",
        "amenity": "restaurant",
        "name": "Ronalo Kosewe"
      },
      "geometry": {
        "type": "Point",
        "coordinates": [
          36.8218028,
          -1.2827876
        ]
      },
      "id": "node/1415247196"
    },
    {
      "type": "Feature",
      "properties": {
        "@id": "node/1418962720",
        "amenity": "restaurant",
        "name": "ymca restaraunt"
      },
      "geometry": {
        "type": "Point",
        "coordinates": [
          36.8126726,
          -1.2799436
        ]
      },
      "id": "node/1418962720"
    },
    {
      "type": "Feature",
      "properties": {
        "@id": "node/1419004976",
        "amenity": "restaurant",
        "name": "Cool Inn Restaurant"
      },
      "geometry": {
        "type": "Point",
        "coordinates": [
          36.8879513,
          -1.3191333
        ]
      },
      "id": "node/1419004976"
    },
    {
      "type": "Feature",
      "properties": {
        "@id": "node/1420048724",
        "amenity": "restaurant",
        "cuisine": "african",
        "name": "United Kenya Club",
        "operator": "United Kenya Club",
        "outdoor_seating": "yes",
        "wheelchair": "no"
      },
      "geometry": {
        "type": "Point",
        "coordinates": [
          36.8133758,
          -1.2807028
        ]
      },
      "id": "node/1420048724"
    },
    {
      "type": "Feature",
      "properties": {
        "@id": "node/1580142913",
        "addr:city": "Nairobi",
        "addr:street": "Mombasa Road",
        "amenity": "restaurant",
        "name": "Urban Coffee Capital Centre"
      },
      "geometry": {
        "type": "Point",
        "coordinates": [
          36.8348013,
          -1.315988
        ]
      },
      "id": "node/1580142913"
    },
    {
      "type": "Feature",
      "properties": {
        "@id": "node/1580159211",
        "amenity": "restaurant",
        "name": "SanaSana"
      },
      "geometry": {
        "type": "Point",
        "coordinates": [
          36.8410626,
          -1.3187508
        ]
      },
      "id": "node/1580159211"
    },
    {
      "type": "Feature",
      "properties": {
        "@id": "node/1628483772",
        "amenity": "restaurant",
        "cuisine": "japanese",
        "name": "Furusato"
      },
      "geometry": {
        "type": "Point",
        "coordinates": [
          36.8068522,
          -1.255948
        ]
      },
      "id": "node/1628483772"
    },
    {
      "type": "Feature",
      "properties": {
        "@id": "node/1628483809",
        "amenity": "restaurant",
        "cuisine": "sushi",
        "name": "Phoenician"
      },
      "geometry": {
        "type": "Point",
        "coordinates": [
          36.762121,
          -1.298201
        ]
      },
      "id": "node/1628483809"
    },
    {
      "type": "Feature",
      "properties": {
        "@id": "node/1717391426",
        "amenity": "restaurant"
      },
      "geometry": {
        "type": "Point",
        "coordinates": [
          36.9297672,
          -1.1826684
        ]
      },
      "id": "node/1717391426"
    },
    {
      "type": "Feature",
      "properties": {
        "@id": "node/1727588852",
        "amenity": "restaurant",
        "name": "beba beba hotel"
      },
      "geometry": {
        "type": "Point",
        "coordinates": [
          36.7805112,
          -1.3147634
        ]
      },
      "id": "node/1727588852"
    },
    {
      "type": "Feature",
      "properties": {
        "@id": "node/1727588877",
        "amenity": "restaurant",
        "name": "mama obama hotel"
      },
      "geometry": {
        "type": "Point",
        "coordinates": [
          36.780772,
          -1.3146578
        ]
      },
      "id": "node/1727588877"
    },
    {
      "type": "Feature",
      "properties": {
        "@id": "node/1732933789",
        "amenity": "restaurant",
        "cuisine": "regional",
        "name": "Equater Hotel"
      },
      "geometry": {
        "type": "Point",
        "coordinates": [
          36.8923429,
          -1.2458875
        ]
      },
      "id": "node/1732933789"
    },
    {
      "type": "Feature",
      "properties": {
        "@id": "node/1764202913",
        "addr:city": "Nairobi",
        "addr:street": "Dennis Pritt Road",
        "amenity": "restaurant",
        "name": "Gracia Gardens",
        "place": "locality"
      },
      "geometry": {
        "type": "Point",
        "coordinates": [
          36.7863582,
          -1.2855785
        ]
      },
      "id": "node/1764202913"
    },
    {
      "type": "Feature",
      "properties": {
        "@id": "node/1787146029",
        "amenity": "restaurant",
        "name": "Red C"
      },
      "geometry": {
        "type": "Point",
        "coordinates": [
          36.7397442,
          -1.3382749
        ]
      },
      "id": "node/1787146029"
    },
    {
      "type": "Feature",
      "properties": {
        "@id": "node/1867233993",
        "addr:city": "Nairobi",
        "addr:street": "Muguga Green",
        "amenity": "restaurant",
        "name": "Abyssinia Exotic Ethiopian Restaurant"
      },
      "geometry": {
        "type": "Point",
        "coordinates": [
          36.7870493,
          -1.2580886
        ]
      },
      "id": "node/1867233993"
    },
    {
      "type": "Feature",
      "properties": {
        "@id": "node/1875653421",
        "amenity": "restaurant",
        "name": "Utalii HOtel"
      },
      "geometry": {
        "type": "Point",
        "coordinates": [
          36.8538373,
          -1.2582573
        ]
      },
      "id": "node/1875653421"
    },
    {
      "type": "Feature",
      "properties": {
        "@id": "node/2145328098",
        "amenity": "restaurant",
        "name": "Haandi Restaurant"
      },
      "geometry": {
        "type": "Point",
        "coordinates": [
          36.8349701,
          -1.3163676
        ]
      },
      "id": "node/2145328098"
    },
    {
      "type": "Feature",
      "properties": {
        "@id": "node/2145330649",
        "amenity": "restaurant",
        "name": "Java Capital Center"
      },
      "geometry": {
        "type": "Point",
        "coordinates": [
          36.8348185,
          -1.3163074
        ]
      },
      "id": "node/2145330649"
    },
    {
      "type": "Feature",
      "properties": {
        "@id": "node/2145339965",
        "addr:city": "Nairobi",
        "addr:street": "Mombasa Road",
        "amenity": "restaurant",
        "name": "GALITOS"
      },
      "geometry": {
        "type": "Point",
        "coordinates": [
          36.8348488,
          -1.315902
        ]
      },
      "id": "node/2145339965"
    },
    {
      "type": "Feature",
      "properties": {
        "@id": "node/2212753579",
        "amenity": "restaurant",
        "name": "skimmers restaurant",
        "opening_hours": "24/7",
        "security:other": "yes"
      },
      "geometry": {
        "type": "Point",
        "coordinates": [
          36.8679763,
          -1.2535248
        ]
      },
      "id": "node/2212753579"
    },
    {
      "type": "Feature",
      "properties": {
        "@id": "node/2279270353",
        "amenity": "restaurant",
        "name": "Balozi restaurant"
      },
      "geometry": {
        "type": "Point",
        "coordinates": [
          36.8581039,
          -1.2658145
        ]
      },
      "id": "node/2279270353"
    },
    {
      "type": "Feature",
      "properties": {
        "@id": "node/2280687619",
        "amenity": "restaurant",
        "name": "Skimmers restaurant",
        "opening_hours": "24/7",
        "operational_status": "operational",
        "security:bar": "yes"
      },
      "geometry": {
        "type": "Point",
        "coordinates": [
          36.8674283,
          -1.2552098
        ]
      },
      "id": "node/2280687619"
    },
    {
      "type": "Feature",
      "properties": {
        "@id": "node/2330383399",
        "addr:city": "Nairobi",
        "addr:street": "Outer Ring Road",
        "amenity": "restaurant",
        "name": "Embeut Fish & Chips",
        "opening_hours": "24/7",
        "operational_status": "operational",
        "security:bar": "yes"
      },
      "geometry": {
        "type": "Point",
        "coordinates": [
          36.8736325,
          -1.2476562
        ]
      },
      "id": "node/2330383399"
    },
    {
      "type": "Feature",
      "properties": {
        "@id": "node/2344361832",
        "addr:city": "Nairobi",
        "addr:street": "Thika Road",
        "amenity": "restaurant",
        "cuisine": "japanese",
        "name": "Teriyaki Japan Drive Through"
      },
      "geometry": {
        "type": "Point",
        "coordinates": [
          36.8731799,
          -1.2330515
        ]
      },
      "id": "node/2344361832"
    },
    {
      "type": "Feature",
      "properties": {
        "@id": "node/2405885981",
        "amenity": "restaurant",
        "name": "Hotel Sarova Stanely"
      },
      "geometry": {
        "type": "Point",
        "coordinates": [
          36.88637,
          -1.2469609
        ]
      },
      "id": "node/2405885981"
    },
    {
      "type": "Feature",
      "properties": {
        "@id": "node/2505117835",
        "addr:city": "Nairobi",
        "addr:housenumber": "Oilibya,",
        "addr:street": "Ring Road Parklands",
        "amenity": "restaurant",
        "name": "ChickenInn",
        "opening_hours": "Mo-Su 00:00-23:59"
      },
      "geometry": {
        "type": "Point",
        "coordinates": [
          36.8031281,
          -1.2641224
        ]
      },
      "id": "node/2505117835"
    },
    {
      "type": "Feature",
      "properties": {
        "@id": "node/2511455581",
        "addr:city": "Nairobi",
        "addr:housenumber": "Karen Shopping Center, Langata Rd, Nairobi City",
        "addr:street": "Langata Road",
        "amenity": "restaurant",
        "leisure": "fitness_centre",
        "name": "Trojan Health and Fitness Gym;Big Square - Karen Square"
      },
      "geometry": {
        "type": "Point",
        "coordinates": [
          36.707348,
          -1.3229326
        ]
      },
      "id": "node/2511455581"
    },
    {
      "type": "Feature",
      "properties": {
        "@id": "node/2511456239",
        "addr:housenumber": "Ngong Rd, Nairobi",
        "amenity": "restaurant",
        "cuisine": "regional",
        "name": "Dari Restaurant"
      },
      "geometry": {
        "type": "Point",
        "coordinates": [
          36.7157487,
          -1.3183097
        ]
      },
      "id": "node/2511456239"
    },
    {
      "type": "Feature",
      "properties": {
        "@id": "node/2527966022",
        "amenity": "restaurant",
        "cuisine": "regional",
        "name": "Tamu Tamu Restaurant"
      },
      "geometry": {
        "type": "Point",
        "coordinates": [
          36.9677395,
          -1.1454682
        ]
      },
      "id": "node/2527966022"
    },
    {
      "type": "Feature",
      "properties": {
        "@id": "node/2536462494",
        "addr:city": "Nairobi",
        "addr:street": "United Nations Crescent",
        "amenity": "restaurant",
        "name": "Orchid"
      },
      "geometry": {
        "type": "Point",
        "coordinates": [
          36.8052813,
          -1.2288788
        ]
      },
      "id": "node/2536462494"
    },
    {
      "type": "Feature",
      "properties": {
        "@id": "node/2536626357",
        "addr:city": "Nairobi",
        "addr:street": "United Nations Crescent",
        "amenity": "restaurant",
        "name": "Thai Village"
      },
      "geometry": {
        "type": "Point",
        "coordinates": [
          36.8052965,
          -1.2288369
        ]
      },
      "id": "node/2536626357"
    },
    {
      "type": "Feature",
      "properties": {
        "@id": "node/2536626389",
        "addr:city": "Nairobi",
        "addr:street": "United Nations Crescent",
        "amenity": "restaurant",
        "name": "Taste of Africa"
      },
      "geometry": {
        "type": "Point",
        "coordinates": [
          36.8052656,
          -1.228922
        ]
      },
      "id": "node/2536626389"
    },
    {
      "type": "Feature",
      "properties": {
        "@id": "node/2536626538",
        "addr:city": "Nairobi",
        "addr:street": "United Nations Crescent",
        "amenity": "restaurant",
        "name": "German Point"
      },
      "geometry": {
        "type": "Point",
        "coordinates": [
          36.805225,
          -1.2290337
        ]
      },
      "id": "node/2536626538"
    },
    {
      "type": "Feature",
      "properties": {
        "@id": "node/2536627168",
        "amenity": "restaurant",
        "name": "Pomodoro"
      },
      "geometry": {
        "type": "Point",
        "coordinates": [
          36.8052758,
          -1.2287725
        ]
      },
      "id": "node/2536627168"
    },
    {
      "type": "Feature",
      "properties": {
        "@id": "node/2536627313",
        "addr:city": "Nairobi",
        "addr:housenumber": "The Village Market, Nairobi 69671 00400, Nairobi",
        "addr:street": "Limuru Road",
        "amenity": "restaurant",
        "name": "Artcaffé Gigiri (Cafe Brasserie)",
        "name:it": "Artcaffé Gigiri",
        "wheelchair": "yes"
      },
      "geometry": {
        "type": "Point",
        "coordinates": [
          36.8047473,
          -1.229154
        ]
      },
      "id": "node/2536627313"
    },
    {
      "type": "Feature",
      "properties": {
        "@id": "node/2541914508",
        "addr:city": "Nairobi",
        "addr:street": "Ruaka Road",
        "amenity": "restaurant",
        "name": "The Lord Erroll Gourmet Restaurant",
        "name:it": "The Lord Erroll"
      },
      "geometry": {
        "type": "Point",
        "coordinates": [
          36.8137264,
          -1.2218128
        ]
      },
      "id": "node/2541914508"
    },
    {
      "type": "Feature",
      "properties": {
        "@id": "node/2587600962",
        "addr:city": "Nairobi",
        "addr:street": "Parklands Road",
        "amenity": "restaurant",
        "name": "Java House Parklands"
      },
      "geometry": {
        "type": "Point",
        "coordinates": [
          36.8173001,
          -1.2672686
        ]
      },
      "id": "node/2587600962"
    },
    {
      "type": "Feature",
      "properties": {
        "@id": "node/2641874863",
        "addr:city": "Nairobi",
        "addr:street": "Mombasa Road",
        "amenity": "restaurant",
        "cuisine": "chicken",
        "name": "Chicken Inn"
      },
      "geometry": {
        "type": "Point",
        "coordinates": [
          36.8368749,
          -1.3195061
        ]
      },
      "id": "node/2641874863"
    },
    {
      "type": "Feature",
      "properties": {
        "@id": "node/2647288137",
        "amenity": "restaurant",
        "name": "Black Havana Bar & Restaurant",
        "name:it": "Black Havana",
        "note": "Black Havana Bar & Restaurant, Rhumba every Thursday"
      },
      "geometry": {
        "type": "Point",
        "coordinates": [
          36.8663127,
          -1.2591822
        ]
      },
      "id": "node/2647288137"
    },
    {
      "type": "Feature",
      "properties": {
        "@id": "node/2651640502",
        "amenity": "restaurant",
        "cuisine": "french",
        "name": "La Bonne Bouche"
      },
      "geometry": {
        "type": "Point",
        "coordinates": [
          36.8114461,
          -1.3049886
        ]
      },
      "id": "node/2651640502"
    },
    {
      "type": "Feature",
      "properties": {
        "@id": "node/2780913159",
        "addr:city": "Nairobi",
        "addr:street": "United Nations Avenue",
        "amenity": "restaurant",
        "name": "Big Square Gigiri"
      },
      "geometry": {
        "type": "Point",
        "coordinates": [
          36.8105792,
          -1.2376508
        ]
      },
      "id": "node/2780913159"
    },
    {
      "type": "Feature",
      "properties": {
        "@id": "node/2780913160",
        "addr:city": "Nairobi",
        "addr:street": "Limuru Road",
        "amenity": "restaurant",
        "cuisine": "chicken",
        "name": "Mc Frys"
      },
      "geometry": {
        "type": "Point",
        "coordinates": [
          36.8101903,
          -1.2374516
        ]
      },
      "id": "node/2780913160"
    },
    {
      "type": "Feature",
      "properties": {
        "@id": "node/2818439701",
        "amenity": "restaurant",
        "name": "Local Food. Not Fancy."
      },
      "geometry": {
        "type": "Point",
        "coordinates": [
          36.803255,
          -1.288543
        ]
      },
      "id": "node/2818439701"
    },
    {
      "type": "Feature",
      "properties": {
        "@id": "node/2849789428",
        "amenity": "restaurant",
        "name": "Local Food"
      },
      "geometry": {
        "type": "Point",
        "coordinates": [
          36.8028638,
          -1.2882567
        ]
      },
      "id": "node/2849789428"
    },
    {
      "type": "Feature",
      "properties": {
        "@id": "node/2849789429",
        "amenity": "restaurant",
        "name": "Local Food"
      },
      "geometry": {
        "type": "Point",
        "coordinates": [
          36.8025458,
          -1.2889516
        ]
      },
      "id": "node/2849789429"
    },
    {
      "type": "Feature",
      "properties": {
        "@id": "node/2885172002",
        "addr:city": "Nairobi",
        "addr:street": "Church Road",
        "amenity": "restaurant",
        "name": "Kivulini at Wasini"
      },
      "geometry": {
        "type": "Point",
        "coordinates": [
          36.7879404,
          -1.2616628
        ]
      },
      "id": "node/2885172002"
    },
    {
      "type": "Feature",
      "properties": {
        "@id": "node/2991405453",
        "addr:city": "Nairobi",
        "addr:street": "Kandara Road",
        "amenity": "restaurant",
        "name": "Viva Lounge"
      },
      "geometry": {
        "type": "Point",
        "coordinates": [
          36.7889255,
          -1.2755591
        ]
      },
      "id": "node/2991405453"
    },
    {
      "type": "Feature",
      "properties": {
        "@id": "node/3045694745",
        "addr:street": "Mombasa Road",
        "amenity": "restaurant",
        "name": "Spur Steak Ranch"
      },
      "geometry": {
        "type": "Point",
        "coordinates": [
          36.8448015,
          -1.3242316
        ]
      },
      "id": "node/3045694745"
    },
    {
      "type": "Feature",
      "properties": {
        "@id": "node/3084374459",
        "addr:city": "Nairobi",
        "addr:street": "Garden Estate Road",
        "amenity": "restaurant",
        "name": "Game Changer"
      },
      "geometry": {
        "type": "Point",
        "coordinates": [
          36.8706416,
          -1.2338898
        ]
      },
      "id": "node/3084374459"
    },
    {
      "type": "Feature",
      "properties": {
        "@id": "node/3103286156",
        "addr:housenumber": "Wilson Airport, Nairobi",
        "amenity": "restaurant",
        "name": "Java House Aero Club"
      },
      "geometry": {
        "type": "Point",
        "coordinates": [
          36.8091306,
          -1.3224671
        ]
      },
      "id": "node/3103286156"
    },
    {
      "type": "Feature",
      "properties": {
        "@id": "node/3193298120",
        "addr:city": "Nairobi",
        "addr:street": "Kangundo Road",
        "amenity": "restaurant",
        "name": "Mawe Mbili"
      },
      "geometry": {
        "type": "Point",
        "coordinates": [
          36.9789732,
          -1.2633169
        ]
      },
      "id": "node/3193298120"
    },
    {
      "type": "Feature",
      "properties": {
        "@id": "node/3229643773",
        "amenity": "restaurant",
        "cuisine": "pizza",
        "name": "Domino's Pizza"
      },
      "geometry": {
        "type": "Point",
        "coordinates": [
          36.8100881,
          -1.2373829
        ]
      },
      "id": "node/3229643773"
    },
    {
      "type": "Feature",
      "properties": {
        "@id": "node/3229643774",
        "addr:city": "Nairobi",
        "addr:street": "Limuru Road",
        "amenity": "restaurant",
        "cuisine": "ice_cream",
        "name": "Cold Stone Creamery",
        "wheelchair": "limited"
      },
      "geometry": {
        "type": "Point",
        "coordinates": [
          36.8100425,
          -1.2373534
        ]
      },
      "id": "node/3229643774"
    },
    {
      "type": "Feature",
      "properties": {
        "@id": "node/3283341463",
        "addr:city": "Nairobi",
        "addr:street": "Mombasa Road",
        "amenity": "restaurant",
        "name": "SAVANNA COFFEE LOUNGE (SAMEER BUSINESS PARK)"
      },
      "geometry": {
        "type": "Point",
        "coordinates": [
          36.868962,
          -1.3296572
        ]
      },
      "id": "node/3283341463"
    },
    {
      "type": "Feature",
      "properties": {
        "@id": "node/3283344676",
        "addr:city": "Nairobi",
        "addr:street": "Garden Estate Road",
        "amenity": "restaurant",
        "name": "Roasters Inn"
      },
      "geometry": {
        "type": "Point",
        "coordinates": [
          36.8716551,
          -1.2343614
        ]
      },
      "id": "node/3283344676"
    },
    {
      "type": "Feature",
      "properties": {
        "@id": "node/3294737181",
        "amenity": "restaurant"
      },
      "geometry": {
        "type": "Point",
        "coordinates": [
          36.8289498,
          -1.2889455
        ]
      },
      "id": "node/3294737181"
    },
    {
      "type": "Feature",
      "properties": {
        "@id": "node/3294737182",
        "amenity": "restaurant"
      },
      "geometry": {
        "type": "Point",
        "coordinates": [
          36.8289895,
          -1.2890202
        ]
      },
      "id": "node/3294737182"
    },
    {
      "type": "Feature",
      "properties": {
        "@id": "node/3294739781",
        "addr:city": "Nairobi",
        "addr:street": "Moi Avenue",
        "amenity": "restaurant",
        "name": "Bakers Inn"
      },
      "geometry": {
        "type": "Point",
        "coordinates": [
          36.82775,
          -1.2888881
        ]
      },
      "id": "node/3294739781"
    },
    {
      "type": "Feature",
      "properties": {
        "@id": "node/3303976597",
        "amenity": "restaurant",
        "cuisine": "pizza",
        "name": "Naked Pizza"
      },
      "geometry": {
        "type": "Point",
        "coordinates": [
          36.853751,
          -1.3248504
        ]
      },
      "id": "node/3303976597"
    },
    {
      "type": "Feature",
      "properties": {
        "@id": "node/3380515988",
        "amenity": "restaurant",
        "name": "JKUAT NSC Cafeteria"
      },
      "geometry": {
        "type": "Point",
        "coordinates": [
          37.0132085,
          -1.098862
        ]
      },
      "id": "node/3380515988"
    },
    {
      "type": "Feature",
      "properties": {
        "@id": "node/3383449542",
        "amenity": "restaurant"
      },
      "geometry": {
        "type": "Point",
        "coordinates": [
          37.0146489,
          -1.1019552
        ]
      },
      "id": "node/3383449542"
    },
    {
      "type": "Feature",
      "properties": {
        "@id": "node/3392759034",
        "amenity": "restaurant"
      },
      "geometry": {
        "type": "Point",
        "coordinates": [
          36.7398166,
          -1.3624783
        ]
      },
      "id": "node/3392759034"
    },
    {
      "type": "Feature",
      "properties": {
        "@id": "node/3393468067",
        "addr:housenumber": "Langata Rd, Nairobi",
        "amenity": "restaurant",
        "cuisine": "chinese",
        "name": "Double Dragon Chinese Restaurant"
      },
      "geometry": {
        "type": "Point",
        "coordinates": [
          36.7653257,
          -1.3437091
        ]
      },
      "id": "node/3393468067"
    },
    {
      "type": "Feature",
      "properties": {
        "@id": "node/3519474199",
        "amenity": "restaurant",
        "name": "Paradise Takeway",
        "takeaway": "only"
      },
      "geometry": {
        "type": "Point",
        "coordinates": [
          36.6558591,
          -1.3615312
        ]
      },
      "id": "node/3519474199"
    },
    {
      "type": "Feature",
      "properties": {
        "@id": "node/3519591082",
        "amenity": "restaurant",
        "name": "Que Pasa",
        "phone": "+254 713 328688"
      },
      "geometry": {
        "type": "Point",
        "coordinates": [
          36.7065014,
          -1.3230498
        ]
      },
      "id": "node/3519591082"
    },
    {
      "type": "Feature",
      "properties": {
        "@id": "node/3549788698",
        "amenity": "restaurant",
        "name": "Osirua Bar & Restaurant"
      },
      "geometry": {
        "type": "Point",
        "coordinates": [
          36.6538621,
          -1.3587678
        ]
      },
      "id": "node/3549788698"
    },
    {
      "type": "Feature",
      "properties": {
        "@id": "node/3585213904",
        "addr:city": "Ngong",
        "addr:street": "Forest Line -Ngong  Road",
        "amenity": "restaurant",
        "name": "Bounty Restaurant and Bar"
      },
      "geometry": {
        "type": "Point",
        "coordinates": [
          36.6571019,
          -1.3666188
        ]
      },
      "id": "node/3585213904"
    },
    {
      "type": "Feature",
      "properties": {
        "@id": "node/3602653948",
        "addr:city": "Athi River",
        "addr:street": "Namanga Road",
        "amenity": "restaurant",
        "name": "East African Portland Club"
      },
      "geometry": {
        "type": "Point",
        "coordinates": [
          36.9696,
          -1.4382326
        ]
      },
      "id": "node/3602653948"
    },
    {
      "type": "Feature",
      "properties": {
        "@id": "node/3602686851",
        "addr:city": "Athi River",
        "addr:street": "Mombasa Road",
        "amenity": "restaurant",
        "name": "Hotel Green Garden"
      },
      "geometry": {
        "type": "Point",
        "coordinates": [
          36.9734981,
          -1.4368233
        ]
      },
      "id": "node/3602686851"
    },
    {
      "type": "Feature",
      "properties": {
        "@id": "node/3602689435",
        "addr:city": "Athi River",
        "addr:street": "Mombasa Road",
        "amenity": "restaurant",
        "name": "Millenium Hotel and Restaurant"
      },
      "geometry": {
        "type": "Point",
        "coordinates": [
          36.9732205,
          -1.4400173
        ]
      },
      "id": "node/3602689435"
    },
    {
      "type": "Feature",
      "properties": {
        "@id": "node/3643341089",
        "addr:city": "Nairobi",
        "addr:street": "Waiyaki Way",
        "amenity": "restaurant",
        "name": "Njuguna's Place"
      },
      "geometry": {
        "type": "Point",
        "coordinates": [
          36.7794568,
          -1.2585316
        ]
      },
      "id": "node/3643341089"
    },
    {
      "type": "Feature",
      "properties": {
        "@id": "node/3643342920",
        "addr:city": "Nairobi",
        "addr:street": "Waiyaki Way",
        "amenity": "restaurant",
        "cuisine": "pizza",
        "name": "Debonairs Pizza Total ABC"
      },
      "geometry": {
        "type": "Point",
        "coordinates": [
          36.7783125,
          -1.2592374
        ]
      },
      "id": "node/3643342920"
    },
    {
      "type": "Feature",
      "properties": {
        "@id": "node/3663487238",
        "amenity": "restaurant",
        "cuisine": "regional",
        "name": "Flappy Fries"
      },
      "geometry": {
        "type": "Point",
        "coordinates": [
          37.0196416,
          -1.0958473
        ]
      },
      "id": "node/3663487238"
    },
    {
      "type": "Feature",
      "properties": {
        "@id": "node/3678861764",
        "amenity": "restaurant",
        "cuisine": "regional",
        "name": "Friends Corner"
      },
      "geometry": {
        "type": "Point",
        "coordinates": [
          37.0145855,
          -1.1040699
        ]
      },
      "id": "node/3678861764"
    },
    {
      "type": "Feature",
      "properties": {
        "@id": "node/3706305272",
        "amenity": "restaurant",
        "name": "The Bench"
      },
      "geometry": {
        "type": "Point",
        "coordinates": [
          36.7225027,
          -1.4005767
        ]
      },
      "id": "node/3706305272"
    },
    {
      "type": "Feature",
      "properties": {
        "@id": "node/3729484627",
        "addr:city": "Nairobi",
        "addr:street": "Waiyaki Way",
        "amenity": "restaurant",
        "cuisine": "coffee_shop",
        "highchair": "Yes",
        "internet_access": "yes",
        "internet_access:fee": "no",
        "level": "0",
        "name": "Java Coffee House",
        "opening_hours": "Mo-Su 06:30-21:00; PH open",
        "operator": "Java",
        "outdoor_seating": "yes",
        "takeaway": "yes",
        "toilets": "yes",
        "toilets:access": "customers",
        "wheelchair": "yes"
      },
      "geometry": {
        "type": "Point",
        "coordinates": [
          36.7855125,
          -1.2599554
        ]
      },
      "id": "node/3729484627"
    },
    {
      "type": "Feature",
      "properties": {
        "@id": "node/3766329565",
        "amenity": "restaurant",
        "cuisine": "regional",
        "name": "Juja Pork Centre",
        "takeaway": "yes"
      },
      "geometry": {
        "type": "Point",
        "coordinates": [
          37.0135494,
          -1.1031902
        ]
      },
      "id": "node/3766329565"
    },
    {
      "type": "Feature",
      "properties": {
        "@id": "node/3776166740",
        "addr:city": "Nairobi",
        "addr:postcode": "P. O. Box 4289 Lenana Rd, Nairobi City",
        "addr:street": "Nyangumi Road",
        "amenity": "restaurant",
        "cuisine": "italian",
        "name": "Casablanca"
      },
      "geometry": {
        "type": "Point",
        "coordinates": [
          36.7899739,
          -1.2884017
        ]
      },
      "id": "node/3776166740"
    },
    {
      "type": "Feature",
      "properties": {
        "@id": "node/3777948417",
        "amenity": "restaurant",
        "name": "Mlango Farm"
      },
      "geometry": {
        "type": "Point",
        "coordinates": [
          36.6843104,
          -1.1717154
        ]
      },
      "id": "node/3777948417"
    },
    {
      "type": "Feature",
      "properties": {
        "@id": "node/3912704558",
        "addr:housenumber": "Matumbato Cl, Nairobi",
        "amenity": "restaurant",
        "name": "Capital Heights"
      },
      "geometry": {
        "type": "Point",
        "coordinates": [
          36.8104622,
          -1.3038398
        ]
      },
      "id": "node/3912704558"
    },
    {
      "type": "Feature",
      "properties": {
        "@id": "node/3926513163",
        "amenity": "restaurant"
      },
      "geometry": {
        "type": "Point",
        "coordinates": [
          36.9664777,
          -1.4577197
        ]
      },
      "id": "node/3926513163"
    },
    {
      "type": "Feature",
      "properties": {
        "@id": "node/3996188572",
        "amenity": "restaurant",
        "name": "Kula Korner"
      },
      "geometry": {
        "type": "Point",
        "coordinates": [
          36.7999469,
          -1.2948261
        ]
      },
      "id": "node/3996188572"
    },
    {
      "type": "Feature",
      "properties": {
        "@id": "node/4075648759",
        "addr:city": "Nairobi",
        "addr:housenumber": "Adlife Plaza, P.o. Box 69671 - 00400,",
        "addr:street": "Ring Road",
        "amenity": "restaurant",
        "capacity": "150",
        "cuisine": "american",
        "delivery": "no",
        "level": "1",
        "name": "Newscafe - Adlife (Kilimani)",
        "opening_hours": "0700-2300",
        "smoking": "outside",
        "takeaway": "yes"
      },
      "geometry": {
        "type": "Point",
        "coordinates": [
          36.7872703,
          -1.2947784
        ]
      },
      "id": "node/4075648759"
    },
    {
      "type": "Feature",
      "properties": {
        "@id": "node/4075662155",
        "addr:city": "Nairobi",
        "addr:housenumber": "Adlife Plaza",
        "addr:street": "Ring Road",
        "amenity": "restaurant",
        "capacity": "100",
        "cuisine": "burger",
        "delivery": "yes",
        "level": "0",
        "name": "Big Square",
        "opening_hours": "0900-2200",
        "smoking": "no",
        "takeaway": "yes"
      },
      "geometry": {
        "type": "Point",
        "coordinates": [
          36.7872865,
          -1.2948368
        ]
      },
      "id": "node/4075662155"
    },
    {
      "type": "Feature",
      "properties": {
        "@id": "node/4178774490",
        "addr:street": "Ngong Road",
        "amenity": "restaurant",
        "cuisine": "ethiopian",
        "internet_access": "wlan",
        "name": "Damera"
      },
      "geometry": {
        "type": "Point",
        "coordinates": [
          36.7820246,
          -1.3005394
        ]
      },
      "id": "node/4178774490"
    },
    {
      "type": "Feature",
      "properties": {
        "@id": "node/4259252770",
        "addr:city": "Nairobi",
        "addr:street": "Kimathi Street",
        "amenity": "restaurant",
        "capacity": "300",
        "cuisine": "african",
        "level": "1",
        "name": "City Star",
        "opening_hours": "Mo-Sa 07:00-20:00; Su 10:00-18:00; PH open",
        "smoking": "no",
        "takeaway": "yes",
        "toilets": "yes",
        "toilets:access": "customers",
        "wheelchair": "no"
      },
      "geometry": {
        "type": "Point",
        "coordinates": [
          36.8221762,
          -1.2828418
        ]
      },
      "id": "node/4259252770"
    },
    {
      "type": "Feature",
      "properties": {
        "@id": "node/4304615716",
        "alt_name": "The River Cafe",
        "amenity": "restaurant",
        "cuisine": "international",
        "name": "The River Café",
        "opening_hours": "Mo-Su 07:00-18:30",
        "phone": "+254725969891",
        "survey:date": "2022-07-17",
        "wheelchair": "yes"
      },
      "geometry": {
        "type": "Point",
        "coordinates": [
          36.8205103,
          -1.2418653
        ]
      },
      "id": "node/4304615716"
    },
    {
      "type": "Feature",
      "properties": {
        "@id": "node/4405282196",
        "addr:street": "Langata Road",
        "amenity": "restaurant",
        "cuisine": "arab;kebab;grill",
        "email": "bedouin.ke@gmail.com",
        "name": "Bedouin Restaurant",
        "name:de": "Bedouin Restaurant",
        "name:en": "Bedouin Restaurant",
        "opening_hours": "Mo-Su 08:00-22:00",
        "operator": "Anwaar Centre, behind Al-Anwaar Mosque",
        "phone": "+245 735445444"
      },
      "geometry": {
        "type": "Point",
        "coordinates": [
          36.7394173,
          -1.3383611
        ]
      },
      "id": "node/4405282196"
    },
    {
      "type": "Feature",
      "properties": {
        "@id": "node/4405710393",
        "addr:street": "Koinage Street",
        "amenity": "restaurant",
        "name": "K&A Coffee House & Cafeteria",
        "name:en": "K&A Coffee House & Cafeteria"
      },
      "geometry": {
        "type": "Point",
        "coordinates": [
          36.8198548,
          -1.286018
        ]
      },
      "id": "node/4405710393"
    },
    {
      "type": "Feature",
      "properties": {
        "@id": "node/4405777990",
        "addr:city": "Nairobi",
        "addr:street": "Ngariama Lane",
        "amenity": "restaurant",
        "name": "Roast House",
        "name:en": "Roast House"
      },
      "geometry": {
        "type": "Point",
        "coordinates": [
          36.8231104,
          -1.2809513
        ]
      },
      "id": "node/4405777990"
    },
    {
      "type": "Feature",
      "properties": {
        "@id": "node/4406454891",
        "addr:city": "Nairobi",
        "addr:street": "Mandera Road",
        "amenity": "restaurant",
        "name": "Tulip's",
        "name:en": "Tulip's"
      },
      "geometry": {
        "type": "Point",
        "coordinates": [
          36.7888224,
          -1.2742354
        ]
      },
      "id": "node/4406454891"
    },
    {
      "type": "Feature",
      "properties": {
        "@id": "node/4406696293",
        "amenity": "restaurant",
        "cuisine": "indian",
        "name": "Asoka",
        "name:en": "Asoka"
      },
      "geometry": {
        "type": "Point",
        "coordinates": [
          36.8183056,
          -1.2579841
        ]
      },
      "id": "node/4406696293"
    },
    {
      "type": "Feature",
      "properties": {
        "@id": "node/4414817189",
        "addr:city": "Nairobi",
        "addr:street": "Moi Avenue",
        "amenity": "restaurant",
        "name": "Azuri",
        "name:en": "Azuri"
      },
      "geometry": {
        "type": "Point",
        "coordinates": [
          36.8238281,
          -1.2832593
        ]
      },
      "id": "node/4414817189"
    },
    {
      "type": "Feature",
      "properties": {
        "@id": "node/4421842491",
        "amenity": "restaurant",
        "cuisine": "african;arab;kebab",
        "name": "Mangrove City Restaurant a",
        "name:en": "Mangrove City Restaurant a"
      },
      "geometry": {
        "type": "Point",
        "coordinates": [
          36.8233367,
          -1.3125786
        ]
      },
      "id": "node/4421842491"
    },
    {
      "type": "Feature",
      "properties": {
        "@id": "node/4463296106",
        "amenity": "restaurant",
        "name": "For You Chinese Restaurant"
      },
      "geometry": {
        "type": "Point",
        "coordinates": [
          36.7709874,
          -1.2896743
        ]
      },
      "id": "node/4463296106"
    },
    {
      "type": "Feature",
      "properties": {
        "@id": "node/4516528589",
        "addr:city": "Nairobi",
        "addr:street": "Milimani Road",
        "amenity": "restaurant",
        "name": "Nyama Choma Paradise",
        "name:en": "Nyama Choma Paradise"
      },
      "geometry": {
        "type": "Point",
        "coordinates": [
          36.8040487,
          -1.2889476
        ]
      },
      "id": "node/4516528589"
    },
    {
      "type": "Feature",
      "properties": {
        "@id": "node/4592077893",
        "amenity": "restaurant",
        "name": "Restaurant",
        "name:en": "Restaurant"
      },
      "geometry": {
        "type": "Point",
        "coordinates": [
          36.8024915,
          -1.2970463
        ]
      },
      "id": "node/4592077893"
    },
    {
      "type": "Feature",
      "properties": {
        "@id": "node/4613993992",
        "addr:city": "Nairobi",
        "addr:street": "Crossway",
        "amenity": "restaurant",
        "cuisine": "indian",
        "name": "Chowpaty"
      },
      "geometry": {
        "type": "Point",
        "coordinates": [
          36.8052102,
          -1.265527
        ]
      },
      "id": "node/4613993992"
    },
    {
      "type": "Feature",
      "properties": {
        "@id": "node/4636840024",
        "addr:city": "Nairobi",
        "addr:street": "Ojijo Road",
        "amenity": "restaurant",
        "name": "Pizza Inn"
      },
      "geometry": {
        "type": "Point",
        "coordinates": [
          36.8119032,
          -1.2673261
        ]
      },
      "id": "node/4636840024"
    },
    {
      "type": "Feature",
      "properties": {
        "@id": "node/4678805890",
        "addr:city": "Nairobi",
        "addr:street": "Muthangari Drive",
        "amenity": "restaurant",
        "name": "J's Fresh Bar & Kitchen",
        "name:en": "J's Fresh Bar & Kitchen"
      },
      "geometry": {
        "type": "Point",
        "coordinates": [
          36.7844575,
          -1.2600277
        ]
      },
      "id": "node/4678805890"
    },
    {
      "type": "Feature",
      "properties": {
        "@id": "node/4772237778",
        "addr:city": "Nairobi",
        "addr:street": "Argwings Kodhek Road",
        "amenity": "restaurant",
        "cuisine": "regional",
        "delivery": "no",
        "name": "Pablo's",
        "outdoor_seating": "yes",
        "smoking": "outside",
        "takeaway": "no"
      },
      "geometry": {
        "type": "Point",
        "coordinates": [
          36.7950745,
          -1.293612
        ]
      },
      "id": "node/4772237778"
    },
    {
      "type": "Feature",
      "properties": {
        "@id": "node/4789983224",
        "addr:city": "Nairobi",
        "addr:street": "Kolloh Road",
        "amenity": "restaurant",
        "cuisine": "japanese",
        "name": "Tokyo Restaurant",
        "name:en": "Tokyo restaurant"
      },
      "geometry": {
        "type": "Point",
        "coordinates": [
          36.7690626,
          -1.2813722
        ]
      },
      "id": "node/4789983224"
    },
    {
      "type": "Feature",
      "properties": {
        "@id": "node/4826704228",
        "addr:city": "Karen",
        "addr:street": "Ngong road",
        "amenity": "restaurant",
        "name": "Asmara"
      },
      "geometry": {
        "type": "Point",
        "coordinates": [
          36.7024871,
          -1.322538
        ]
      },
      "id": "node/4826704228"
    },
    {
      "type": "Feature",
      "properties": {
        "@id": "node/4835284822",
        "addr:housenumber": "Bogani E Rd, Nairobi",
        "amenity": "restaurant",
        "name": "Fatso's Authentic Swahili Dishes"
      },
      "geometry": {
        "type": "Point",
        "coordinates": [
          36.7565512,
          -1.3532493
        ]
      },
      "id": "node/4835284822"
    },
    {
      "type": "Feature",
      "properties": {
        "@id": "node/4838534021",
        "addr:housenumber": "Langata Rd, Nairobi",
        "amenity": "restaurant",
        "name": "Le 63 Lounge & Restaurant",
        "name:en": "Lounge 63"
      },
      "geometry": {
        "type": "Point",
        "coordinates": [
          36.7967782,
          -1.3251817
        ]
      },
      "id": "node/4838534021"
    },
    {
      "type": "Feature",
      "properties": {
        "@id": "node/4923541341",
        "addr:city": "Nairobi",
        "addr:street": "Woodlands Lane",
        "amenity": "restaurant",
        "name": "Nook"
      },
      "geometry": {
        "type": "Point",
        "coordinates": [
          36.7990948,
          -1.2943488
        ]
      },
      "id": "node/4923541341"
    },
    {
      "type": "Feature",
      "properties": {
        "@id": "node/4966765923",
        "amenity": "restaurant",
        "cuisine": "indian;caribbean",
        "name": "Caribbean",
        "name:en": "Caribbean"
      },
      "geometry": {
        "type": "Point",
        "coordinates": [
          36.785158,
          -1.2934686
        ]
      },
      "id": "node/4966765923"
    },
    {
      "type": "Feature",
      "properties": {
        "@id": "node/4973895109",
        "amenity": "restaurant",
        "amenity_1": "bar",
        "amenity_2": "guesthouses",
        "description": "Restaurant, Bar, Guesthouses",
        "name": "Kefri Retreat Centre",
        "outdoor_seating": "no",
        "takeaway": "no"
      },
      "geometry": {
        "type": "Point",
        "coordinates": [
          36.6379047,
          -1.2221399
        ]
      },
      "id": "node/4973895109"
    },
    {
      "type": "Feature",
      "properties": {
        "@id": "node/5003136023",
        "addr:city": "Nairobi",
        "addr:street": "Cardinal Otunga Street",
        "amenity": "restaurant",
        "cuisine": "african;cake;coffee_shop",
        "name": "89 Eateries",
        "name:en": "89 Eateries"
      },
      "geometry": {
        "type": "Point",
        "coordinates": [
          36.8199915,
          -1.2868425
        ]
      },
      "id": "node/5003136023"
    },
    {
      "type": "Feature",
      "properties": {
        "@id": "node/5038990108",
        "amenity": "restaurant",
        "name": "Savannah VIlla & Restaurant",
        "smoking": "isolated",
        "takeaway": "yes"
      },
      "geometry": {
        "type": "Point",
        "coordinates": [
          36.9481984,
          -1.2517331
        ]
      },
      "id": "node/5038990108"
    },
    {
      "type": "Feature",
      "properties": {
        "@id": "node/5070531027",
        "addr:city": "Nairobi",
        "addr:street": "Mama Ngina Street",
        "amenity": "restaurant",
        "cuisine": "japanese",
        "name": "Teriyaki"
      },
      "geometry": {
        "type": "Point",
        "coordinates": [
          36.8236204,
          -1.2852185
        ]
      },
      "id": "node/5070531027"
    },
    {
      "type": "Feature",
      "properties": {
        "@id": "node/5075100722",
        "addr:city": "KIAMBU",
        "addr:postcode": "00900",
        "addr:street": "Kiambu Road",
        "amenity": "restaurant",
        "cuisine": "fish;african;sandwich;breakfast;grill;steak_house;pasta;pancake;pizza;chicken;italian_pizza",
        "email": "manager@loswanihotels.com",
        "name": "The Golden Eagle",
        "phone": "+254079100717",
        "website": "http://www.loswanihotels.com"
      },
      "geometry": {
        "type": "Point",
        "coordinates": [
          36.839914,
          -1.1896003
        ]
      },
      "id": "node/5075100722"
    },
    {
      "type": "Feature",
      "properties": {
        "@id": "node/5178151561",
        "amenity": "restaurant",
        "name": "Old Library Tuckshop"
      },
      "geometry": {
        "type": "Point",
        "coordinates": [
          36.9344993,
          -1.1805078
        ]
      },
      "id": "node/5178151561"
    },
    {
      "type": "Feature",
      "properties": {
        "@id": "node/5178151562",
        "amenity": "restaurant",
        "name": "Sz Food outlet"
      },
      "geometry": {
        "type": "Point",
        "coordinates": [
          36.9323879,
          -1.1801444
        ]
      },
      "id": "node/5178151562"
    },
    {
      "type": "Feature",
      "properties": {
        "@id": "node/5254474221",
        "addr:city": "Nairobi",
        "addr:street": "Galana Road",
        "amenity": "restaurant",
        "name": "Fogo Gaucho"
      },
      "geometry": {
        "type": "Point",
        "coordinates": [
          36.7827542,
          -1.2907703
        ]
      },
      "id": "node/5254474221"
    },
    {
      "type": "Feature",
      "properties": {
        "@id": "node/5289790324",
        "amenity": "restaurant",
        "name": "Berra Lounge Hotel",
        "phone": "0726 309599",
        "website": "http://www.berraloungehotel.co.ke"
      },
      "geometry": {
        "type": "Point",
        "coordinates": [
          36.6369379,
          -1.3334034
        ]
      },
      "id": "node/5289790324"
    },
    {
      "type": "Feature",
      "properties": {
        "@id": "node/5327767092",
        "amenity": "restaurant",
        "name": "Uncle Pork Butchery"
      },
      "geometry": {
        "type": "Point",
        "coordinates": [
          36.8279933,
          -1.1699373
        ]
      },
      "id": "node/5327767092"
    },
    {
      "type": "Feature",
      "properties": {
        "@id": "node/5327767982",
        "amenity": "restaurant",
        "name": "Zaesco"
      },
      "geometry": {
        "type": "Point",
        "coordinates": [
          36.8274096,
          -1.1695792
        ]
      },
      "id": "node/5327767982"
    },
    {
      "type": "Feature",
      "properties": {
        "@id": "node/5327801719",
        "amenity": "restaurant",
        "name": "Junction Car Wash"
      },
      "geometry": {
        "type": "Point",
        "coordinates": [
          36.8376646,
          -1.1791511
        ]
      },
      "id": "node/5327801719"
    },
    {
      "type": "Feature",
      "properties": {
        "@id": "node/5327805717",
        "addr:city": "Kiambu",
        "addr:street": "Kiambu Road",
        "amenity": "restaurant",
        "name": "Itara Grills"
      },
      "geometry": {
        "type": "Point",
        "coordinates": [
          36.839052,
          -1.185089
        ]
      },
      "id": "node/5327805717"
    },
    {
      "type": "Feature",
      "properties": {
        "@id": "node/5328474268",
        "amenity": "restaurant",
        "name": "Java House Sarit",
        "outdoor_seating": "yes"
      },
      "geometry": {
        "type": "Point",
        "coordinates": [
          36.8018123,
          -1.2612646
        ]
      },
      "id": "node/5328474268"
    },
    {
      "type": "Feature",
      "properties": {
        "@id": "node/5328482643",
        "amenity": "restaurant",
        "name": "Subway Westlands"
      },
      "geometry": {
        "type": "Point",
        "coordinates": [
          36.804045,
          -1.2627036
        ]
      },
      "id": "node/5328482643"
    },
    {
      "type": "Feature",
      "properties": {
        "@id": "node/5328489787",
        "addr:city": "Nairobi",
        "addr:housenumber": "Delta Corner,",
        "addr:street": "Delta Corner Road",
        "amenity": "restaurant",
        "name": "Urban Eatery",
        "outdoor_seating": "yes"
      },
      "geometry": {
        "type": "Point",
        "coordinates": [
          36.8021618,
          -1.2655239
        ]
      },
      "id": "node/5328489787"
    },
    {
      "type": "Feature",
      "properties": {
        "@id": "node/5328528781",
        "addr:city": "Nairobi",
        "addr:street": "Kindaruma Road",
        "amenity": "restaurant",
        "name": "Soiree Gardens Restaurant"
      },
      "geometry": {
        "type": "Point",
        "coordinates": [
          36.7911663,
          -1.2975822
        ]
      },
      "id": "node/5328528781"
    },
    {
      "type": "Feature",
      "properties": {
        "@id": "node/5329314570",
        "addr:city": "Nairobi",
        "addr:street": "Argwings Kodhek Road",
        "amenity": "restaurant",
        "name": "Under The Radar"
      },
      "geometry": {
        "type": "Point",
        "coordinates": [
          36.7779456,
          -1.2930182
        ]
      },
      "id": "node/5329314570"
    },
    {
      "type": "Feature",
      "properties": {
        "@id": "node/5329660130",
        "addr:city": "Kiambu",
        "addr:street": "Biashara Street Kiambu",
        "amenity": "restaurant",
        "name": "Hatchers Inn"
      },
      "geometry": {
        "type": "Point",
        "coordinates": [
          36.8279654,
          -1.1712442
        ]
      },
      "id": "node/5329660130"
    },
    {
      "type": "Feature",
      "properties": {
        "@id": "node/5331536205",
        "addr:city": "Nairobi",
        "addr:street": "Kiambu Road",
        "amenity": "restaurant",
        "name": "Vine Arch"
      },
      "geometry": {
        "type": "Point",
        "coordinates": [
          36.8383982,
          -1.22367
        ]
      },
      "id": "node/5331536205"
    },
    {
      "type": "Feature",
      "properties": {
        "@id": "node/5331543897",
        "addr:city": "Kiambu",
        "addr:street": "Kiambu Road",
        "amenity": "restaurant",
        "name": "New Sarivid Place Restaurant"
      },
      "geometry": {
        "type": "Point",
        "coordinates": [
          36.8329956,
          -1.2080719
        ]
      },
      "id": "node/5331543897"
    },
    {
      "type": "Feature",
      "properties": {
        "@id": "node/5331679459",
        "addr:city": "Nairobi",
        "addr:street": "Getathuru Road",
        "amenity": "restaurant",
        "name": "Kitisuru Place Urban Local"
      },
      "geometry": {
        "type": "Point",
        "coordinates": [
          36.7492523,
          -1.2350357
        ]
      },
      "id": "node/5331679459"
    },
    {
      "type": "Feature",
      "properties": {
        "@id": "node/5333019919",
        "addr:city": "Nairobi",
        "addr:street": "Lower Kabete Road",
        "amenity": "restaurant",
        "name": "Jade Coffee & Teahouse at Zen Garden"
      },
      "geometry": {
        "type": "Point",
        "coordinates": [
          36.7691197,
          -1.2446572
        ]
      },
      "id": "node/5333019919"
    },
    {
      "type": "Feature",
      "properties": {
        "@id": "node/5333171195",
        "amenity": "restaurant",
        "name": "Fang Fang Chinese Restaurant"
      },
      "geometry": {
        "type": "Point",
        "coordinates": [
          36.7747565,
          -1.2707009
        ]
      },
      "id": "node/5333171195"
    },
    {
      "type": "Feature",
      "properties": {
        "@id": "node/5333185204",
        "addr:city": "Nairobi",
        "addr:street": "Naushad Merali Drive",
        "amenity": "restaurant",
        "name": "Mambo Italia"
      },
      "geometry": {
        "type": "Point",
        "coordinates": [
          36.7694325,
          -1.2782442
        ]
      },
      "id": "node/5333185204"
    },
    {
      "type": "Feature",
      "properties": {
        "@id": "node/5333185205",
        "amenity": "restaurant",
        "name": "Adega Kenya"
      },
      "geometry": {
        "type": "Point",
        "coordinates": [
          36.7693226,
          -1.2781731
        ]
      },
      "id": "node/5333185205"
    },
    {
      "type": "Feature",
      "properties": {
        "@id": "node/5333189065",
        "amenity": "restaurant",
        "name": "Peri-peri grill"
      },
      "geometry": {
        "type": "Point",
        "coordinates": [
          36.7681581,
          -1.2767559
        ]
      },
      "id": "node/5333189065"
    },
    {
      "type": "Feature",
      "properties": {
        "@id": "node/5333318303",
        "addr:city": "Nairobi",
        "addr:street": "James Gichuru Road",
        "amenity": "restaurant",
        "name": "Toranj Restaurant"
      },
      "geometry": {
        "type": "Point",
        "coordinates": [
          36.7627378,
          -1.2854862
        ]
      },
      "id": "node/5333318303"
    },
    {
      "type": "Feature",
      "properties": {
        "@id": "node/5333319731",
        "amenity": "restaurant",
        "name": "910 James Gichuru"
      },
      "geometry": {
        "type": "Point",
        "coordinates": [
          36.7623349,
          -1.286289
        ]
      },
      "id": "node/5333319731"
    },
    {
      "type": "Feature",
      "properties": {
        "@id": "node/5334825322",
        "addr:city": "Nairobi",
        "addr:housenumber": "ABC PLace,",
        "addr:street": "Waiyaki Way",
        "amenity": "restaurant",
        "name": "Caramel Restaurant & Lounge"
      },
      "geometry": {
        "type": "Point",
        "coordinates": [
          36.7773359,
          -1.2595717
        ]
      },
      "id": "node/5334825322"
    },
    {
      "type": "Feature",
      "properties": {
        "@id": "node/5334826428",
        "addr:city": "Nairobi",
        "addr:street": "Waiyaki Way",
        "amenity": "restaurant",
        "name": "360 Degrees Pizza"
      },
      "geometry": {
        "type": "Point",
        "coordinates": [
          36.77644,
          -1.2595944
        ]
      },
      "id": "node/5334826428"
    },
    {
      "type": "Feature",
      "properties": {
        "@id": "node/5334827136",
        "addr:city": "Nairobi",
        "addr:street": "Manyani East road",
        "amenity": "restaurant",
        "name": "Steak Out"
      },
      "geometry": {
        "type": "Point",
        "coordinates": [
          36.7751358,
          -1.2601897
        ]
      },
      "id": "node/5334827136"
    },
    {
      "type": "Feature",
      "properties": {
        "@id": "node/5334827411",
        "addr:city": "Nairobi",
        "addr:street": "Manyani East road",
        "amenity": "restaurant",
        "cuisine": "japanese",
        "name": "Cheka Japanese Izakaya"
      },
      "geometry": {
        "type": "Point",
        "coordinates": [
          36.7754009,
          -1.2606209
        ]
      },
      "id": "node/5334827411"
    },
    {
      "type": "Feature",
      "properties": {
        "@id": "node/5334828978",
        "addr:city": "Nairobi",
        "addr:street": "Kanjata Road",
        "amenity": "restaurant",
        "cuisine": "korean",
        "name": "Daejanggeum Korean Restaurant / 대장금"
      },
      "geometry": {
        "type": "Point",
        "coordinates": [
          36.7757992,
          -1.262616
        ]
      },
      "id": "node/5334828978"
    },
    {
      "type": "Feature",
      "properties": {
        "@id": "node/5334902098",
        "addr:city": "Nairobi",
        "addr:street": "Hamisi Road",
        "amenity": "restaurant",
        "name": "Strollers Haven"
      },
      "geometry": {
        "type": "Point",
        "coordinates": [
          36.7789988,
          -1.2863095
        ]
      },
      "id": "node/5334902098"
    },
    {
      "type": "Feature",
      "properties": {
        "@id": "node/5334902635",
        "addr:city": "Nairobi",
        "addr:street": "Suguta Road",
        "amenity": "restaurant",
        "cuisine": "japanese",
        "name": "Wu Jiayuan hotel 吴家园酒店"
      },
      "geometry": {
        "type": "Point",
        "coordinates": [
          36.7785983,
          -1.2873168
        ]
      },
      "id": "node/5334902635"
    },
    {
      "type": "Feature",
      "properties": {
        "@id": "node/5334926566",
        "addr:city": "Nairobi",
        "addr:street": "Gitanga Road",
        "amenity": "restaurant",
        "name": "Java House Valley Arcade"
      },
      "geometry": {
        "type": "Point",
        "coordinates": [
          36.7702199,
          -1.2906238
        ]
      },
      "id": "node/5334926566"
    },
    {
      "type": "Feature",
      "properties": {
        "@id": "node/5334928939",
        "amenity": "restaurant",
        "name": "La Salumeria Restaurant"
      },
      "geometry": {
        "type": "Point",
        "coordinates": [
          36.770383,
          -1.2913348
        ]
      },
      "id": "node/5334928939"
    },
    {
      "type": "Feature",
      "properties": {
        "@id": "node/5334947084",
        "amenity": "restaurant",
        "cuisine": "brazilian",
        "name": "Pampa Churrascaria Lavington"
      },
      "geometry": {
        "type": "Point",
        "coordinates": [
          36.7623765,
          -1.2934521
        ]
      },
      "id": "node/5334947084"
    },
    {
      "type": "Feature",
      "properties": {
        "@id": "node/5334952479",
        "amenity": "restaurant",
        "bar": "yes",
        "cuisine": "african;bar&grill",
        "internet_access": "wlan",
        "name": "7 Degrees Bar Restaurant and Lounge",
        "name:it": "7 Degrees",
        "opening_hours": "Mo-Su 09:00-03:00",
        "outdoor_seating": "yes",
        "phone": "+254704782214",
        "website": "https://www.7degrees.co.ke"
      },
      "geometry": {
        "type": "Point",
        "coordinates": [
          36.7583771,
          -1.297801
        ]
      },
      "id": "node/5334952479"
    },
    {
      "type": "Feature",
      "properties": {
        "@id": "node/5334952536",
        "amenity": "restaurant",
        "name": "Valencia Gardens"
      },
      "geometry": {
        "type": "Point",
        "coordinates": [
          36.7580447,
          -1.2966074
        ]
      },
      "id": "node/5334952536"
    },
    {
      "type": "Feature",
      "properties": {
        "@id": "node/5334973327",
        "addr:city": "Nairobi",
        "addr:street": "St. Daniel Comboni Road",
        "amenity": "restaurant",
        "cuisine": "italian",
        "name": "La Cantina"
      },
      "geometry": {
        "type": "Point",
        "coordinates": [
          36.7545141,
          -1.2997921
        ]
      },
      "id": "node/5334973327"
    },
    {
      "type": "Feature",
      "properties": {
        "@id": "node/5334998841",
        "amenity": "restaurant",
        "cuisine": "chinese",
        "name": "Double Dragon Company Ltd."
      },
      "geometry": {
        "type": "Point",
        "coordinates": [
          36.7626308,
          -1.2980261
        ]
      },
      "id": "node/5334998841"
    },
    {
      "type": "Feature",
      "properties": {
        "@id": "node/5336524536",
        "addr:city": "Kiambu",
        "addr:street": "Kiambu-Banana Road",
        "amenity": "restaurant",
        "name": "Riverside Hotel"
      },
      "geometry": {
        "type": "Point",
        "coordinates": [
          36.8334327,
          -1.1755377
        ]
      },
      "id": "node/5336524536"
    },
    {
      "type": "Feature",
      "properties": {
        "@id": "node/5339116165",
        "addr:city": "Nairobi",
        "addr:street": "James Gichuru Road",
        "amenity": "restaurant",
        "name": "Artcaffe Lavington"
      },
      "geometry": {
        "type": "Point",
        "coordinates": [
          36.7697367,
          -1.2800259
        ]
      },
      "id": "node/5339116165"
    },
    {
      "type": "Feature",
      "properties": {
        "@id": "node/5339138466",
        "amenity": "restaurant",
        "name": "iBury Lounge"
      },
      "geometry": {
        "type": "Point",
        "coordinates": [
          36.77925,
          -1.2687956
        ]
      },
      "id": "node/5339138466"
    },
    {
      "type": "Feature",
      "properties": {
        "@id": "node/5339138469",
        "addr:city": "Nairobi",
        "addr:street": "Riverside Drive",
        "amenity": "restaurant",
        "name": "The Honey Brown"
      },
      "geometry": {
        "type": "Point",
        "coordinates": [
          36.7790837,
          -1.2688335
        ]
      },
      "id": "node/5339138469"
    },
    {
      "type": "Feature",
      "properties": {
        "@id": "node/5339160677",
        "amenity": "restaurant",
        "cuisine": "chinese;japanese;korean",
        "name": "(Chengdu Impression) 成都饭店"
      },
      "geometry": {
        "type": "Point",
        "coordinates": [
          36.7931233,
          -1.2706857
        ]
      },
      "id": "node/5339160677"
    },
    {
      "type": "Feature",
      "properties": {
        "@id": "node/5339193627",
        "amenity": "restaurant",
        "name": "Azure Hotel Nairobi Westlands"
      },
      "geometry": {
        "type": "Point",
        "coordinates": [
          36.7990971,
          -1.2668021
        ]
      },
      "id": "node/5339193627"
    },
    {
      "type": "Feature",
      "properties": {
        "@id": "node/5339200167",
        "amenity": "restaurant",
        "internet_access": "wifi",
        "internet_access:fee": "free",
        "internet_access:ssid": "POTS&PALMS",
        "name": "Pots And Palms"
      },
      "geometry": {
        "type": "Point",
        "coordinates": [
          36.7984216,
          -1.2705563
        ]
      },
      "id": "node/5339200167"
    },
    {
      "type": "Feature",
      "properties": {
        "@id": "node/5339209653",
        "amenity": "restaurant",
        "name": "Laikipia Cottages"
      },
      "geometry": {
        "type": "Point",
        "coordinates": [
          36.7940306,
          -1.2735736
        ]
      },
      "id": "node/5339209653"
    },
    {
      "type": "Feature",
      "properties": {
        "@id": "node/5339220442",
        "addr:city": "Nairobi",
        "addr:street": "Kandara Road",
        "amenity": "restaurant",
        "name": "Java Rosslyn Riviera"
      },
      "geometry": {
        "type": "Point",
        "coordinates": [
          36.7918972,
          -1.2761391
        ]
      },
      "id": "node/5339220442"
    },
    {
      "type": "Feature",
      "properties": {
        "@id": "node/5339224752",
        "addr:city": "Nairobi",
        "addr:street": "Kandara Road",
        "amenity": "restaurant",
        "name": "Solar Garden"
      },
      "geometry": {
        "type": "Point",
        "coordinates": [
          36.7877876,
          -1.2761213
        ]
      },
      "id": "node/5339224752"
    },
    {
      "type": "Feature",
      "properties": {
        "@id": "node/5339224753",
        "amenity": "restaurant",
        "name": "Swadish Gardens"
      },
      "geometry": {
        "type": "Point",
        "coordinates": [
          36.7835011,
          -1.2798703
        ]
      },
      "id": "node/5339224753"
    },
    {
      "type": "Feature",
      "properties": {
        "@id": "node/5339286100",
        "amenity": "restaurant",
        "name": "Captain Grill"
      },
      "geometry": {
        "type": "Point",
        "coordinates": [
          36.7716574,
          -1.2867121
        ]
      },
      "id": "node/5339286100"
    },
    {
      "type": "Feature",
      "properties": {
        "@id": "node/5339303190",
        "amenity": "restaurant",
        "name": "Mama Ashanti Ghanaian Restaurant"
      },
      "geometry": {
        "type": "Point",
        "coordinates": [
          36.7689921,
          -1.2883504
        ]
      },
      "id": "node/5339303190"
    },
    {
      "type": "Feature",
      "properties": {
        "@id": "node/5339317386",
        "addr:city": "Nairobi",
        "addr:street": "Riverside Westlands Lane",
        "amenity": "restaurant",
        "cuisine": "international",
        "diet:chicken": "yes",
        "diet:vegetarian": "yes",
        "name": "Amani ya Juu"
      },
      "geometry": {
        "type": "Point",
        "coordinates": [
          36.8018311,
          -1.2714378
        ]
      },
      "id": "node/5339317386"
    },
    {
      "type": "Feature",
      "properties": {
        "@id": "node/5339320764",
        "addr:city": "Nairobi",
        "addr:housenumber": "14,",
        "addr:street": "Riverside Park",
        "amenity": "restaurant",
        "name": "Soi Restaurant"
      },
      "geometry": {
        "type": "Point",
        "coordinates": [
          36.8036788,
          -1.2698873
        ]
      },
      "id": "node/5339320764"
    },
    {
      "type": "Feature",
      "properties": {
        "@id": "node/5339320765",
        "amenity": "restaurant",
        "name": "Soi Restaurant"
      },
      "geometry": {
        "type": "Point",
        "coordinates": [
          36.8042363,
          -1.2693796
        ]
      },
      "id": "node/5339320765"
    },
    {
      "type": "Feature",
      "properties": {
        "@id": "node/5339406605",
        "addr:city": "Nairobi",
        "addr:street": "Mpaka Road",
        "amenity": "restaurant",
        "name": "Clay Oven Restaurant"
      },
      "geometry": {
        "type": "Point",
        "coordinates": [
          36.8040983,
          -1.2663145
        ]
      },
      "id": "node/5339406605"
    },
    {
      "type": "Feature",
      "properties": {
        "@id": "node/5339411313",
        "addr:city": "Nairobi",
        "addr:street": "Westlands Road",
        "amenity": "restaurant",
        "cuisine": "chinese",
        "name": "New JiangSu Restaurant",
        "name:it": "New JiangSu"
      },
      "geometry": {
        "type": "Point",
        "coordinates": [
          36.8048116,
          -1.2658652
        ]
      },
      "id": "node/5339411313"
    },
    {
      "type": "Feature",
      "properties": {
        "@id": "node/5339416304",
        "addr:city": "Nairobi",
        "addr:street": "Muthithi Road",
        "amenity": "restaurant",
        "name": "SHANUZ BAR-BE-QUE",
        "name:it": "Shanuz Bar-be-que"
      },
      "geometry": {
        "type": "Point",
        "coordinates": [
          36.8058531,
          -1.265009
        ]
      },
      "id": "node/5339416304"
    },
    {
      "type": "Feature",
      "properties": {
        "@id": "node/5339417232",
        "addr:city": "Nairobi",
        "addr:street": "Muthithi Road",
        "amenity": "restaurant",
        "name": "Chef's Chicken"
      },
      "geometry": {
        "type": "Point",
        "coordinates": [
          36.805744,
          -1.2641938
        ]
      },
      "id": "node/5339417232"
    },
    {
      "type": "Feature",
      "properties": {
        "@id": "node/5339419522",
        "addr:city": "Nairobi",
        "addr:street": "Westlands Road",
        "amenity": "restaurant",
        "cuisine": "chinese",
        "name": "Taste of China Restaurant"
      },
      "geometry": {
        "type": "Point",
        "coordinates": [
          36.8063234,
          -1.2665788
        ]
      },
      "id": "node/5339419522"
    },
    {
      "type": "Feature",
      "properties": {
        "@id": "node/5339424891",
        "addr:city": "Nairobi",
        "addr:street": "Westlands Road",
        "amenity": "restaurant",
        "name": "Java House Orbit Place"
      },
      "geometry": {
        "type": "Point",
        "coordinates": [
          36.8092479,
          -1.2696135
        ]
      },
      "id": "node/5339424891"
    },
    {
      "type": "Feature",
      "properties": {
        "@id": "node/5339427767",
        "amenity": "restaurant",
        "name": "Treehouse"
      },
      "geometry": {
        "type": "Point",
        "coordinates": [
          36.8118563,
          -1.2737035
        ]
      },
      "id": "node/5339427767"
    },
    {
      "type": "Feature",
      "properties": {
        "@id": "node/5339427768",
        "amenity": "restaurant",
        "name": "Ebony Lounge"
      },
      "geometry": {
        "type": "Point",
        "coordinates": [
          36.8128083,
          -1.2735587
        ]
      },
      "id": "node/5339427768"
    },
    {
      "type": "Feature",
      "properties": {
        "@id": "node/5339427770",
        "addr:city": "Nairobi",
        "addr:street": "Taarifa Road",
        "amenity": "restaurant",
        "name": "Swaad Restaurant"
      },
      "geometry": {
        "type": "Point",
        "coordinates": [
          36.8145496,
          -1.2699937
        ]
      },
      "id": "node/5339427770"
    },
    {
      "type": "Feature",
      "properties": {
        "@id": "node/5339434977",
        "addr:city": "Nairobi",
        "addr:street": "Chiromo Lane",
        "amenity": "restaurant",
        "cuisine": "japanese;african",
        "name": "Obento Restaurant and Grill. Kenyan & Japanese Cuisine"
      },
      "geometry": {
        "type": "Point",
        "coordinates": [
          36.8096338,
          -1.2697437
        ]
      },
      "id": "node/5339434977"
    },
    {
      "type": "Feature",
      "properties": {
        "@id": "node/5339443878",
        "addr:city": "Nairobi",
        "addr:street": "Waiyaki Way",
        "amenity": "restaurant",
        "name": "The Tav - Irish Bar And Restaurant"
      },
      "geometry": {
        "type": "Point",
        "coordinates": [
          36.8076274,
          -1.2700602
        ]
      },
      "id": "node/5339443878"
    },
    {
      "type": "Feature",
      "properties": {
        "@id": "node/5339443902",
        "addr:city": "Nairobi",
        "addr:street": "Greenway Road",
        "amenity": "restaurant",
        "name": "Stavrose restaurant"
      },
      "geometry": {
        "type": "Point",
        "coordinates": [
          36.806374,
          -1.2688893
        ]
      },
      "id": "node/5339443902"
    },
    {
      "type": "Feature",
      "properties": {
        "@id": "node/5339467039",
        "addr:city": "Nairobi",
        "addr:street": "Parklands Road",
        "amenity": "restaurant",
        "name": "Zar Restaurant",
        "name:it": "Zar"
      },
      "geometry": {
        "type": "Point",
        "coordinates": [
          36.8063656,
          -1.2628598
        ]
      },
      "id": "node/5339467039"
    },